farmerId,farmerName,city,latitude,longitude
FARMER-101,Anil Kadam,Pune,18.5204,73.8567
FARMER-102,Sunita Pawar,Nashik,20.0112,73.7909
FARMER-103,Ramesh Jadhav,Satara,17.6805,74.0183
FARMER-104,Vijay Shinde,Ahmednagar,19.0941,74.7452
FARMER-105,Priya Desai,Pune,18.4977,73.8744